[
  {
    "id": "bahrain",
    "name": "Bahrain International Circuit",
    "country": "Bahrain",
    "city": "Sakhir",
    "lat": 26.0325,
    "lng": 50.5106,
    "lapLength": 5.412,
    "turns": 15,
    "drsZones": 3,
    "lapRecord": "1:30.252 - Michael Schumacher (2004)",
    "imageUrl": "https://upload.wikimedia.org/wikipedia/commons/b/b1/Vip-tower-f1-bahrain.jpg"
  },
  {
    "id": "jeddah",
    "name": "Jeddah Corniche Circuit",
    "country": "Saudi Arabia",
    "city": "Jeddah",
    "lat": 21.6319,
    "lng": 39.1044,
    "lapLength": 6.174,
    "turns": 27,
    "drsZones": 3,
    "lapRecord": "1:30.734 - Lewis Hamilton (2021)",
    "imageUrl": "https://upload.wikimedia.org/wikipedia/commons/1/15/Jeddah_Corniche_36.jpg"
  },
  {
    "id": "albert_park",
    "name": "Albert Park Circuit",
    "country": "Australia",
    "city": "Melbourne",
    "lat": -37.8497,
    "lng": 144.968,
    "lapLength": 5.278,
    "turns": 14,
    "drsZones": 4,
    "lapRecord": "1:19.813 - Charles Leclerc (2024)",
    "imageUrl": "https://images.unsplash.com/photo-1514395462725-fb4566210144?q=80&w=1600"
  },
  {
    "id": "suzuka",
    "name": "Suzuka International Racing Course",
    "country": "Japan",
    "city": "Suzuka",
    "lat": 34.8431,
    "lng": 136.541,
    "lapLength": 5.807,
    "turns": 18,
    "drsZones": 1,
    "lapRecord": "1:30.983 - Lewis Hamilton (2019)",
    "imageUrl": "https://images.unsplash.com/photo-1493976040374-85c8e12f0c0e?q=80&w=1600"
  },
  {
    "id": "shanghai",
    "name": "Shanghai International Circuit",
    "country": "China",
    "city": "Shanghai",
    "lat": 31.3389,
    "lng": 121.22,
    "lapLength": 5.451,
    "turns": 16,
    "drsZones": 2,
    "lapRecord": "1:32.238 - Michael Schumacher (2004)",
    "imageUrl": "https://images.unsplash.com/photo-1505322022379-7c3353ee6291?q=80&w=1600"
  },
  {
    "id": "miami",
    "name": "Miami International Autodrome",
    "country": "USA",
    "city": "Miami",
    "lat": 25.9581,
    "lng": -80.2389,
    "lapLength": 5.412,
    "turns": 19,
    "drsZones": 3,
    "lapRecord": "1:29.708 - Max Verstappen (2023)",
    "imageUrl": "https://images.unsplash.com/photo-1533106497176-45ae19e68ba2?q=80&w=1600"
  },
  {
    "id": "imola",
    "name": "Autodromo Enzo e Dino Ferrari",
    "country": "Italy",
    "city": "Imola",
    "lat": 44.3439,
    "lng": 11.7167,
    "lapLength": 4.909,
    "turns": 19,
    "drsZones": 1,
    "lapRecord": "1:15.484 - Lewis Hamilton (2020)",
    "imageUrl": "https://upload.wikimedia.org/wikipedia/commons/f/fc/Autodromo_aerea_poster.jpg"
  },
  {
    "id": "monaco",
    "name": "Circuit de Monaco",
    "country": "Monaco",
    "city": "Monte Carlo",
    "lat": 43.7347,
    "lng": 7.4208,
    "lapLength": 3.337,
    "turns": 19,
    "drsZones": 1,
    "lapRecord": "1:12.909 - Lewis Hamilton (2021)",
    "imageUrl": "https://images.unsplash.com/photo-1534008897995-27a23e859048?q=80&w=1600"
  },
  {
    "id": "villeneuve",
    "name": "Circuit Gilles Villeneuve",
    "country": "Canada",
    "city": "Montreal",
    "lat": 45.5005,
    "lng": -73.5228,
    "lapLength": 4.361,
    "turns": 14,
    "drsZones": 3,
    "lapRecord": "1:13.078 - Valtteri Bottas (2019)",
    "imageUrl": "https://upload.wikimedia.org/wikipedia/commons/8/87/Montreal_Skyline_from_Mont_Royal.jpg"
  },
  {
    "id": "catalunya",
    "name": "Circuit de Barcelona-Catalunya",
    "country": "Spain",
    "city": "Montmeló",
    "lat": 41.57,
    "lng": 2.2611,
    "lapLength": 4.657,
    "turns": 14,
    "drsZones": 2,
    "lapRecord": "1:16.330 - Max Verstappen (2023)",
    "imageUrl": "https://upload.wikimedia.org/wikipedia/commons/b/b5/Sagrada_Familia_01.jpg"
  },
  {
    "id": "red_bull_ring",
    "name": "Red Bull Ring",
    "country": "Austria",
    "city": "Spielberg",
    "lat": 47.2197,
    "lng": 14.7647,
    "lapLength": 4.318,
    "turns": 10,
    "drsZones": 3,
    "lapRecord": "1:05.619 - Carlos Sainz (2020)",
    "imageUrl": "https://images.unsplash.com/photo-1516214104703-d870798883c5?q=80&w=1600"
  },
  {
    "id": "silverstone",
    "name": "Silverstone Circuit",
    "country": "UK",
    "city": "Silverstone",
    "lat": 52.0786,
    "lng": -1.0169,
    "lapLength": 5.891,
    "turns": 18,
    "drsZones": 2,
    "lapRecord": "1:27.097 - Max Verstappen (2020)",
    "imageUrl": "https://images.unsplash.com/photo-1513635269975-59663e0ac1ad?q=80&w=1600"
  },
  {
    "id": "hungaroring",
    "name": "Hungaroring",
    "country": "Hungary",
    "city": "Mogyoród",
    "lat": 47.5831,
    "lng": 19.2511,
    "lapLength": 4.381,
    "turns": 14,
    "drsZones": 2,
    "lapRecord": "1:16.627 - Lewis Hamilton (2020)",
    "imageUrl": "https://images.unsplash.com/photo-1515091943-9d5c0ad475af?q=80&w=1600"
  },
  {
    "id": "spa",
    "name": "Circuit de Spa-Francorchamps",
    "country": "Belgium",
    "city": "Stavelot",
    "lat": 50.4372,
    "lng": 5.9714,
    "lapLength": 7.004,
    "turns": 19,
    "drsZones": 2,
    "lapRecord": "1:46.286 - Valtteri Bottas (2018)",
    "imageUrl": "https://images.unsplash.com/photo-1476231682828-37e571bc172f?q=80&w=1600"
  },
  {
    "id": "zandvoort",
    "name": "Circuit Zandvoort",
    "country": "Netherlands",
    "city": "Zandvoort",
    "lat": 52.3888,
    "lng": 4.5408,
    "lapLength": 4.259,
    "turns": 14,
    "drsZones": 2,
    "lapRecord": "1:11.097 - Lewis Hamilton (2021)",
    "imageUrl": "https://upload.wikimedia.org/wikipedia/commons/4/4d/Aerial_view_of_the_North_Sea%2C_Zandvoort%2C_the_Netherlands_%2847980173173%29.jpg"
  },
  {
    "id": "monza",
    "name": "Autodromo Nazionale Monza",
    "country": "Italy",
    "city": "Monza",
    "lat": 45.6156,
    "lng": 9.2811,
    "lapLength": 5.793,
    "turns": 11,
    "drsZones": 2,
    "lapRecord": "1:21.046 - Rubens Barrichello (2004)",
    "imageUrl": "https://upload.wikimedia.org/wikipedia/commons/f/f5/Royal_Villa_of_Monza_10.jpg"
  },
  {
    "id": "baku",
    "name": "Baku City Circuit",
    "country": "Azerbaijan",
    "city": "Baku",
    "lat": 40.3725,
    "lng": 49.8533,
    "lapLength": 6.003,
    "turns": 20,
    "drsZones": 2,
    "lapRecord": "1:43.009 - Charles Leclerc (2019)",
    "imageUrl": "https://upload.wikimedia.org/wikipedia/commons/f/fb/Baku_Flame_Towers.jpg"
  },
  {
    "id": "marina_bay",
    "name": "Marina Bay Street Circuit",
    "country": "Singapore",
    "city": "Singapore",
    "lat": 1.2914,
    "lng": 103.864,
    "lapLength": 4.94,
    "turns": 19,
    "drsZones": 3,
    "lapRecord": "1:35.867 - Lewis Hamilton (2023)",
    "imageUrl": "https://images.unsplash.com/photo-1525625293386-3f8f99389edd?q=80&w=1600"
  },
  {
    "id": "americas",
    "name": "Circuit of the Americas",
    "country": "USA",
    "city": "Austin",
    "lat": 30.1328,
    "lng": -97.6411,
    "lapLength": 5.513,
    "turns": 20,
    "drsZones": 2,
    "lapRecord": "1:36.169 - Charles Leclerc (2019)",
    "imageUrl": "https://upload.wikimedia.org/wikipedia/commons/f/fe/2012_USA_GP_circuit_panorama.jpg"
  },
  {
    "id": "rodriguez",
    "name": "Autódromo Hermanos Rodríguez",
    "country": "Mexico",
    "city": "Mexico City",
    "lat": 19.4042,
    "lng": -99.0907,
    "lapLength": 4.304,
    "turns": 17,
    "drsZones": 3,
    "lapRecord": "1:17.774 - Valtteri Bottas (2021)",
    "imageUrl": "https://images.unsplash.com/photo-1585464231875-d9ef1f5ad396?q=80&w=1600"
  },
  {
    "id": "interlagos",
    "name": "Autódromo José Carlos Pace",
    "country": "Brazil",
    "city": "São Paulo",
    "lat": -23.7036,
    "lng": -46.6997,
    "lapLength": 4.309,
    "turns": 15,
    "drsZones": 2,
    "lapRecord": "1:10.540 - Valtteri Bottas (2018)",
    "imageUrl": "https://images.unsplash.com/photo-1543083477-4f785aeafaa9?q=80&w=1600"
  },
  {
    "id": "las_vegas",
    "name": "Las Vegas Strip Circuit",
    "country": "USA",
    "city": "Las Vegas",
    "lat": 36.1147,
    "lng": -115.172,
    "lapLength": 6.201,
    "turns": 17,
    "drsZones": 3,
    "lapRecord": "1:35.490 - Oscar Piastri (2023)",
    "imageUrl": "https://upload.wikimedia.org/wikipedia/commons/5/58/11_The_Venetian_Las_Vegas_-_luxury_hotel_and_casino_in_Las_Vegas_Strip.jpg"
  },
  {
    "id": "losail",
    "name": "Lusail International Circuit",
    "country": "Qatar",
    "city": "Lusail",
    "lat": 25.49,
    "lng": 51.4542,
    "lapLength": 5.419,
    "turns": 16,
    "drsZones": 1,
    "lapRecord": "1:24.319 - Max Verstappen (2023)",
    "imageUrl": "https://upload.wikimedia.org/wikipedia/commons/e/ec/Al_Wahda_Arches_Qatar_Architect_Erik_Behrens_Aerial_Photo.jpg"
  },
  {
    "id": "yas_marina",
    "name": "Yas Marina Circuit",
    "country": "UAE",
    "city": "Abu Dhabi",
    "lat": 24.4672,
    "lng": 54.6031,
    "lapLength": 5.281,
    "turns": 16,
    "drsZones": 2,
    "lapRecord": "1:26.103 - Max Verstappen (2021)",
    "imageUrl": "https://images.unsplash.com/photo-1512453979798-5ea266f8880c?q=80&w=1600"
  }
]